{"user":{"name":"Ashik"},"restaurants":[{"fsq_id":"4c5814257329c92817379080","categories":[{"id":13276,"name":"Sushi Restaurant","icon":{"prefix":"https://ss3.4sqi.net/img/categories_v2/food/sushi_","suffix":".png"}}],"distance":2394,"geocodes":{"main":{"latitude":23.788599314535148,"longitude":90.42053610354871}},"location":{"address":"House -24C, Road -113A, Gulshan -2","country":"BD","locality":"Dhaka","postcode":"1213","region":"Dhaka Division"},"name":"Izumi"},{"fsq_id":"55747c2e498eef85b23fdd0f","categories":[{"id":13035,"name":"Coffee Shop","icon":{"prefix":"https://ss3.4sqi.net/img/categories_v2/food/coffeeshop_","suffix":".png"}}],"distance":1383,"geocodes":{"main":{"latitude":23.790160229621424,"longitude":90.4080981016159}},"location":{"address":"2nd Floor, Point 11, House 25, Road 11, Block H, Banani","country":"BD","cross_street":"","locality":"Dhaka","neighborhood":["Banani"],"postcode":"1213","region":"Dhaka Division"},"name":"Columbus coffee"},{"fsq_id":"5670eeda498efccf880ad543","categories":[{"id":13035,"name":"Coffee Shop","icon":{"prefix":"https://ss3.4sqi.net/img/categories_v2/food/coffeeshop_","suffix":".png"}}],"distance":1959,"geocodes":{"main":{"latitude":23.78582613439328,"longitude":90.41698591411128}},"location":{"address":"53 Gulshan Avenue","country":"BD","cross_street":"","locality":"Gulshan 2","postcode":"1212","region":"Dhaka Division"},"name":"North End Coffee Roasters @ Cityscape Tower"},{"fsq_id":"4dc528f9e4cd169dc644a25f","categories":[{"id":13034,"name":"Café","icon":{"prefix":"https://ss3.4sqi.net/img/categories_v2/food/cafe_","suffix":".png"}}],"distance":2972,"geocodes":{"main":{"latitude":23.793627604936788,"longitude":90.4243636378673}},"location":{"country":"BD","cross_street":"","locality":"Dhaka","postcode":"1212","region":"Dhaka Division"},"name":"North End Coffee Roasters"},{"fsq_id":"5662e832498e1563b69e63ee","categories":[{"id":13034,"name":"Café","icon":{"prefix":"https://ss3.4sqi.net/img/categories_v2/food/cafe_","suffix":".png"}}],"distance":2506,"geocodes":{"main":{"latitude":23.800364648171378,"longitude":90.41184933456084}},"location":{"address":"175 Gulshan Avenue","country":"BD","cross_street":"","locality":"Gulshan","postcode":"1212","region":"Dhaka Division"},"name":"Butlers Chocolate Cafe"},{"fsq_id":"5526a042498eb90a6626619c","categories":[{"id":13027,"name":"Bistro","icon":{"prefix":"https://ss3.4sqi.net/img/categories_v2/food/default_","suffix":".png"}}],"distance":2522,"geocodes":{"main":{"latitude":23.796045849649897,"longitude":90.41737287555931}},"location":{"address":"NE 12 North Ave.","country":"BD","cross_street":"","locality":"Dhaka","postcode":"","region":"Dhaka Division"},"name":"Bistro E"},{"fsq_id":"4d2c35a6068e8cfaa2e9e94c","categories":[{"id":13072,"name":"Asian Restaurant","icon":{"prefix":"https://ss3.4sqi.net/img/categories_v2/food/asian_","suffix":".png"}}],"distance":1636,"geocodes":{"main":{"latitude":23.79226840677251,"longitude":90.40930676140928}},"location":{"address":"Road 17, house 66","country":"BD","cross_street":"","locality":"Dhaka","neighborhood":["Gulshan, Dhaka"],"postcode":"","region":"Dhaka Division"},"name":"Time Out"},{"fsq_id":"574c40bc498eaa071c56ecd7","categories":[{"id":13034,"name":"Café","icon":{"prefix":"https://ss3.4sqi.net/img/categories_v2/food/cafe_","suffix":".png"}}],"distance":1835,"geocodes":{"main":{"latitude":23.78205374160135,"longitude":90.41633651810209}},"location":{"country":"BD","cross_street":"","postcode":""},"name":"North End Coffee Roasters"},{"fsq_id":"5326ae5011d2f80cb8cebfd7","categories":[{"id":13199,"name":"Indian Restaurant","icon":{"prefix":"https://ss3.4sqi.net/img/categories_v2/food/indian_","suffix":".png"}}],"distance":1356,"geocodes":{"main":{"latitude":23.791372538665602,"longitude":90.40617976651895}},"location":{"country":"BD","cross_street":"","locality":"Dhaka","postcode":"","region":"Dhaka Division"},"name":"Tarka"},{"fsq_id":"55f965f8498e8148faea8089","categories":[{"id":13035,"name":"Coffee Shop","icon":{"prefix":"https://ss3.4sqi.net/img/categories_v2/food/coffeeshop_","suffix":".png"}}],"distance":2935,"geocodes":{"main":{"latitude":23.8042126256089,"longitude":90.41308196558468}},"location":{"address":"Road 71","country":"BD","cross_street":"","locality":"Dhaka","postcode":"","region":"Dhaka Division"},"name":"Gloria Jean’s Coffees"},{"fsq_id":"53c275de498eb88f6b034dd2","categories":[{"id":13072,"name":"Asian Restaurant","icon":{"prefix":"https://ss3.4sqi.net/img/categories_v2/food/asian_","suffix":".png"}}],"distance":1629,"geocodes":{"main":{"latitude":23.792973805391178,"longitude":90.40830965626965}},"location":{"country":"BD","cross_street":"","postcode":""},"name":"Rice and Noodle"},{"fsq_id":"4cd55a1aaeb1224b4ccb21ff","categories":[{"id":13276,"name":"Sushi Restaurant","icon":{"prefix":"https://ss3.4sqi.net/img/categories_v2/food/sushi_","suffix":".png"}}],"distance":1930,"geocodes":{"main":{"latitude":23.792228665943284,"longitude":90.4132536654692}},"location":{"address":"House -27, Road -35, Gulshan -1","country":"BD","locality":"Dhaka","postcode":"1213","region":"Dhaka Division"},"name":"Samdado"},{"fsq_id":"51f66832498e60033a2ab813","categories":[{"id":13289,"name":"Korean Restaurant","icon":{"prefix":"https://ss3.4sqi.net/img/categories_v2/food/korean_","suffix":".png"}}],"distance":2144,"geocodes":{"main":{"latitude":23.797278725195497,"longitude":90.41048092756878}},"location":{"country":"BD","cross_street":"","postcode":""},"name":"Goong"},{"fsq_id":"4dababff6e81162ae7f2a90d","categories":[{"id":13072,"name":"Asian Restaurant","icon":{"prefix":"https://ss3.4sqi.net/img/categories_v2/food/asian_","suffix":".png"}}],"distance":3798,"geocodes":{"main":{"latitude":23.753634591761628,"longitude":90.3767012726286}},"location":{"address":"House#2","country":"BD","cross_street":"Road#13 new Dhanmondi R/A","locality":"Dhaka","postcode":"","region":"Dhaka Division"},"name":"Tehari Ghar"},{"fsq_id":"4e6b38d3227162c38ec51ae9","categories":[{"id":13007,"name":"Beer Garden","icon":{"prefix":"https://ss3.4sqi.net/img/categories_v2/nightlife/beergarden_","suffix":".png"}}],"distance":2553,"geocodes":{"main":{"latitude":23.793683517449622,"longitude":90.41960934419907}},"location":{"country":"BD","cross_street":"","locality":"Dhaka","postcode":"","region":"Dhaka Division"},"name":"German Club"},{"fsq_id":"4bf390083f86c9b6ce4ab21c","categories":[{"id":13072,"name":"Asian Restaurant","icon":{"prefix":"https://ss3.4sqi.net/img/categories_v2/food/asian_","suffix":".png"}}],"distance":1404,"geocodes":{"main":{"latitude":23.793330075666095,"longitude":90.40322404501005}},"location":{"address":"House #15, Road #17, Block #C, Banani","country":"BD","cross_street":"","locality":"Dhaka","postcode":"","region":"Dhaka Division"},"name":"Star Kabab & Restaurant"},{"fsq_id":"4c21c80d9a67a5932b72db87","categories":[{"id":13031,"name":"Burger Joint","icon":{"prefix":"https://ss3.4sqi.net/img/categories_v2/food/burger_","suffix":".png"}}],"distance":2132,"geocodes":{"main":{"latitude":23.793970300881224,"longitude":90.41426003056225}},"location":{"address":"Metropolitan Shopping Plaza, shop 21-22, road 46","country":"BD","cross_street":"Gulshan 2","locality":"Dhaka","postcode":"1212","region":"Dhaka Division"},"name":"American Burger, Gulshan"},{"fsq_id":"5128d616e4b0ac94ea40ba1d","categories":[{"id":13002,"name":"Bakery","icon":{"prefix":"https://ss3.4sqi.net/img/categories_v2/food/bakery_","suffix":".png"}}],"distance":3586,"geocodes":{"main":{"latitude":23.75275735959935,"longitude":90.38230975485479}},"location":{"address":"19/4 West Panthapath","country":"BD","cross_street":"","locality":"Dhaka","postcode":"1215","region":"Dhaka Division"},"name":"Sausly's Pantho Path"},{"fsq_id":"506ed31ee4b002a9400fd89b","categories":[{"id":13035,"name":"Coffee Shop","icon":{"prefix":"https://ss3.4sqi.net/img/categories_v2/food/coffeeshop_","suffix":".png"}}],"distance":1868,"geocodes":{"main":{"latitude":23.77920048205812,"longitude":90.4164934786589}},"location":{"address":"Gulshan 1","country":"BD","cross_street":"","locality":"Dhaka","neighborhood":["Gulshan"],"postcode":"1212","region":"Dhaka Division"},"name":"Gloria Jean's Coffee"},{"fsq_id":"4b996058f964a520cc7635e3","categories":[{"id":13145,"name":"Fast Food Restaurant","icon":{"prefix":"https://ss3.4sqi.net/img/categories_v2/food/fastfood_","suffix":".png"}}],"distance":1019,"geocodes":{"main":{"latitude":23.775472388007763,"longitude":90.39076659453119}},"location":{"address":"New Airport Rd","country":"BD","cross_street":"23.775542,90.390404","locality":"Dhaka","postcode":"","region":"Dhaka Division"},"name":"Captains World"},{"fsq_id":"4e11eaa718a84f0f0317d759","categories":[{"id":13000,"name":"Dining and Drinking","icon":{"prefix":"https://ss3.4sqi.net/img/categories_v2/food/default_","suffix":".png"}}],"distance":1259,"geocodes":{"main":{"latitude":23.79074579101169,"longitude":90.4055119564014}},"location":{"country":"BD","cross_street":"Banani 11","locality":"Dhaka","postcode":"","region":"Dhaka Division"},"name":"Roshna Bilash"},{"fsq_id":"50b9b9e3e4b07607373e6817","categories":[{"id":13065,"name":"Restaurant","icon":{"prefix":"https://ss3.4sqi.net/img/categories_v2/food/default_","suffix":".png"}}],"distance":1920,"geocodes":{"main":{"latitude":23.784000222182353,"longitude":90.41699039958549}},"location":{"address":"76 Bir Uttam Mir Showkat Road, Gulshan 1","country":"BD","cross_street":"","locality":"Dhaka","postcode":"1212","region":"Dhaka Division"},"name":"Kenny Roger's Roasters"},{"fsq_id":"5569e4bd498e0996dff83a83","categories":[{"id":13065,"name":"Restaurant","icon":{"prefix":"https://ss3.4sqi.net/img/categories_v2/food/default_","suffix":".png"}}],"distance":1643,"geocodes":{"main":{"latitude":23.782609,"longitude":90.41442}},"location":{"country":"BD","cross_street":"","postcode":""},"name":"Peda Ting Ting"},{"fsq_id":"53d909e3498e55b92a639996","categories":[{"id":13035,"name":"Coffee Shop","icon":{"prefix":"https://ss3.4sqi.net/img/categories_v2/food/coffeeshop_","suffix":".png"}}],"distance":3995,"geocodes":{"main":{"latitude":23.75226033213149,"longitude":90.4211175441742}},"location":{"address":"khilgaon","country":"BD","cross_street":"","postcode":"","region":"Dhaka Division"},"name":"Apon Coffee House"},{"fsq_id":"5166b504e4b0e5591f6c5a7a","categories":[{"id":13289,"name":"Korean Restaurant","icon":{"prefix":"https://ss3.4sqi.net/img/categories_v2/food/korean_","suffix":".png"}}],"distance":1875,"geocodes":{"main":{"latitude":23.792108511070442,"longitude":90.4126676536402}},"location":{"address":"House 29","country":"BD","cross_street":"Road 43 , Gulshan 2","locality":"Dhaka","postcode":"1206","region":"Dhaka Division"},"name":"Sura"},{"fsq_id":"4f2e8700e4b050b64a407305","categories":[{"id":13236,"name":"Italian Restaurant","icon":{"prefix":"https://ss3.4sqi.net/img/categories_v2/food/italian_","suffix":".png"}}],"distance":2235,"geocodes":{"main":{"latitude":23.795839864138063,"longitude":90.41373996975233}},"location":{"address":"House # 10, Road # 53, 1st Floor, Bashati Avenue, Gulshan-2","country":"BD","cross_street":"","locality":"Dhaka","postcode":"1212","region":"Dhaka Division"},"name":"La Forchetta (Italian Restaurant & Pizza)"},{"fsq_id":"57b4706338faa3374b72c7b3","categories":[{"id":13016,"name":"Lounge","icon":{"prefix":"https://ss3.4sqi.net/img/categories_v2/nightlife/default_","suffix":".png"}}],"distance":1759,"geocodes":{"main":{"latitude":23.790239,"longitude":90.412741}},"location":{"address":"Amari Dhaka","country":"BD","cross_street":"Road 41, Gulshan 2","locality":"Dhaka","postcode":"1212","region":"Dhaka Division"},"name":"Deck 41"},{"fsq_id":"4e0f07ecb0fb59de67dc0c33","categories":[{"id":13003,"name":"Bar","icon":{"prefix":"https://ss3.4sqi.net/img/categories_v2/nightlife/pub_","suffix":".png"}}],"distance":457,"geocodes":{"main":{"latitude":23.778088622093048,"longitude":90.39581590231607}},"location":{"address":"Mosque Rd Mohakhali DOHS","country":"BD","cross_street":"D.O.H.S Mohakhali","locality":"Dhaka","postcode":"","region":"Dhaka Division"},"name":"Raowa Club"},{"fsq_id":"518ba737498ebc3344e2b08a","categories":[{"id":13026,"name":"BBQ Joint","icon":{"prefix":"https://ss3.4sqi.net/img/categories_v2/food/bbqalt_","suffix":".png"}}],"distance":1721,"geocodes":{"main":{"latitude":23.782125683613287,"longitude":90.41521732857896}},"location":{"country":"BD","cross_street":"","locality":"Dhaka","postcode":"","region":"Dhaka Division"},"name":"The Grill House"},{"fsq_id":"4b8ceb74f964a520e1e032e3","categories":[{"id":13055,"name":"Fried Chicken Joint","icon":{"prefix":"https://ss3.4sqi.net/img/categories_v2/food/friedchicken_","suffix":".png"}}],"distance":1534,"geocodes":{"main":{"latitude":23.79373363972001,"longitude":90.40536224842072}},"location":{"address":"Bulu Ocean Tower","country":"BD","cross_street":"Kamal Ataturk Avenue","locality":"Dhaka","postcode":"1212","region":"Dhaka Division"},"name":"KFC, Banani"}]}
